[{"trial_site_id":"1001","investigator":"Mark Mulligan","state":"New York","country":"USA","longitude":"-73.975072","city":"New York","latitude":"40.741560","postalCode":"10016","name":"NYU Langone Health, Schwartz Health Care Center","address":"530 First Avenue, 12th Fl"},{"address":"685 W. Baltimore St., HSF I, 4th Fl","name":"University of Maryland, Center for Vaccine Development and Global Health","postalCode":"21201","latitude":"39.289164","city":"Baltimore","longitude":"-76.625810","country":"USA","investigator":"Kathleen Neuzil","state":"Maryland","trial_site_id":"1002"},{"country":"USA","longitude":"-77.585667","latitude":"43.192742","city":"Rochester","postalCode":"14621","name":"Rochester Regional Health/Rochester General Hospital, Infectious Desease Department","address":"1425 Portland Avenue","trial_site_id":"1003","investigator":"Edward Walsh","state":"New York"},{"name":"Rochester Clinical Research, Inc.","address":"500 Helendale Rd, Ste 265","postalCode":"14609","latitude":"43.179476","city":"Rochester","country":"USA","longitude":"-77.545020","state":"New York","investigator":"Matthew Davis","trial_site_id":"1005"},{"state":"Utah","investigator":"James Peterson","trial_site_id":"1006","address":"2295 Foothill Dr","name":"J. Lewis Research Inc. / Foothill Family Clinic","postalCode":"84109","city":"Salt Lake City","latitude":"40.721491","longitude":"-111.811763","country":"USA"},{"name":"Cincinnati Children's Hospital Medical Center","address":"619 Oak St","postalCode":"45206","latitude":"39.129639","city":"Cincinnati","country":"USA","longitude":"-84.497039","investigator":"Robert Frenck","state":"Ohio","trial_site_id":"1007"},{"state":"Missouri","investigator":"Timothy Jennings","trial_site_id":"1008","postalCode":"63005","name":"Clinical Research Professionals","address":"17998 Chesterfield Airport Rd, Ste 100","country":"USA","longitude":"-90.634202","latitude":"38.669244","city":"Chesterfield"},{"postalCode":"84109","address":"2295 Foothill Dr","name":"J. Lewis Research Inc. / Foothill Family Clinic","longitude":"-111.811763","country":"USA","city":"Salt Lake City","latitude":"40.721491","state":"Utah","investigator":"Shane Christensen","trial_site_id":"1009"},{"trial_site_id":"1011","investigator":"Michael Dever","state":"Florida","country":"USA","longitude":"-84.497039","city":"Orlando","latitude":"39.129639","postalCode":"32801","name":"Clinical Neuroscience Solutions, Inc","address":"618 E. S St, Ste 100"},{"country":"USA","longitude":"-111.997874","latitude":"33.510857","city":"Milford","postalCode":"06460","name":"HOPE Research Institute","address":"3900 E. Camelback Rd, Ste 125, 130 & 135","trial_site_id":"1012","investigator":"Susann Varano","state":"Connecticut"},{"state":"Florida","investigator":"Michael Dever","trial_site_id":"1013","postalCode":"32801","name":"Clinical Neuroscience Solutions, Inc","address":"618 E. S St, Ste 100","country":"USA","longitude":"-81.368636","city":"Orlando","latitude":"28.537427"},{"state":"Massachusetts","investigator":"Elizabeth Barnett","trial_site_id":"1015","postalCode":"02118","name":"Boston Medical Center","address":"1 Boston Medical Center Pl., Shapiro Bldg. 9th Fl.","country":"USA","longitude":"-71.072164","latitude":"42.334403","city":"Boston"},{"trial_site_id":"1016","investigator":"Daniel Finn","state":"Kentucky","longitude":"-85.470766","country":"USA","city":"Bardstown","latitude":"37.808380","postalCode":"40004","address":"201 S 5th St","name":"Kentucky Pediatric / Adult Research"},{"state":"Texas","investigator":"Veronica Fragoso","trial_site_id":"1018","postalCode":"77081","address":"6550 Mapleridge St, Ste 201, 206, 216, 220","name":"Texas Center for Drug Development, Inc","longitude":"-95.474237","country":"USA","city":"San Antonio","latitude":"29.709729"},{"state":"Texas","investigator":"Charles Andrews","trial_site_id":"1019","postalCode":"78229","address":"4410 Medical Dr, Ste 360","name":"Diagnostics Research Group","longitude":"-98.571134","country":"USA","city":"San Antonio","latitude":"29.510245"},{"country":"USA","longitude":"-78.634895","city":"Raleigh","latitude":"35.829084","postalCode":"27609","name":"PMG Research of Raleigh, LLC","address":"3521 Haworth Dr, Ste 100","trial_site_id":"1021","state":"North Carolina","investigator":"John Rubino"},{"latitude":"47.433778","city":"Wenatchee","longitude":"-120.322236","country":"USA","address":"820 N Chelan Ave","name":"Wenatchee Valley Hospital, Clinical Research Department","postalCode":"98801","trial_site_id":"1022","state":"Washington","investigator":"Steven Kaster"},{"investigator":"Christopher Lucasti","state":"New Jersey","trial_site_id":"1024","postalCode":"08244","address":"730 Shore Rd","name":"South Jersey Infectious Disease","longitude":"-74.595725","country":"USA","latitude":"39.313707","city":"Somers Point"},{"longitude":"-79.816062","country":"USA","city":"Fargo","latitude":"36.091044","postalCode":"27408","address":"806 Green Valley Rd, Ste 305","name":"PharmQuest","trial_site_id":"1027","state":"North Carolina","investigator":"Alexander Murray"},{"trial_site_id":"1028","state":"North Dakota","investigator":"Michael Lillestol","latitude":"46.833424","city":"Fargo","longitude":"-96.860613","country":"USA","address":"4450 31st Ave S, Ste 101","name":"Lillestol Research LLC","postalCode":"58104"},{"state":"Ohio","investigator":"Robert Salata","trial_site_id":"1030","name":"University Hospitals Cleveland Medical Center","address":"11100 Euclid Ave","postalCode":"44106","latitude":"41.506408","city":"Cleveland","country":"USA","longitude":"-81.605679"},{"trial_site_id":"1036","state":"Tennessee","investigator":"Marcus Lee","country":"USA","longitude":"-86.215992","latitude":"35.369091","city":"Tullahoma","postalCode":"37388","name":"Trinity Clinical Research","address":"709 NW Atlantic St"},{"trial_site_id":"1037","investigator":"Lisa Usdan","state":"Tennessee","longitude":"-89.849212","country":"USA","city":"Memphis","latitude":"35.099988","postalCode":"38119","address":"6401 poplar Ave, Ste 420","name":"Clinical Neuroscience Solutions, Inc."},{"investigator":"Rick Whiles","state":"Texas","trial_site_id":"1038","address":"240 Medical Park Blvd, Ste 2600","name":"Holston Medical Group","postalCode":"78726","city":"Austin","latitude":"36.585121","longitude":"-82.250162","country":"USA"},{"latitude":"30.417878","city":"Austin","country":"USA","longitude":"-97.849751","name":"Arc Clinical Research at Wilson Parke","address":"11714 Wilson Parke Ave., Ste 150","postalCode":"78726","trial_site_id":"1039","investigator":"Gretchen Crook","state":"Texas"},{"country":"USA","longitude":"-97.419301","city":"Forth Worth","latitude":"32.822397","postalCode":"76135","name":"Benchmark Research","address":"4504 Boat Club Rd, Ste #400A","trial_site_id":"1042","investigator":"William Seger","state":"Texas"},{"address":"13911 St. Francis Blvd., Ste 101","name":"Virginia Research Center, LLC","postalCode":"23114","city":"Midlothian","latitude":"37.466735","longitude":"-77.662634","country":"USA","investigator":"Aaron Hartman","state":"Virginia","trial_site_id":"1044"},{"name":"North Alabama Research Center, LLC","address":"721 W Market St, Ste B","postalCode":"35801","city":"Athens","latitude":"34.803263","country":"USA","longitude":"-86.980871","state":"Georgia","investigator":"Ernest Hendrix","trial_site_id":"1046"},{"trial_site_id":"1047","investigator":"James McMurray","state":"Alabama","longitude":"-86.585356","country":"USA","latitude":"34.725469","city":"Huntsville","postalCode":"35801","address":"303 Williams Ave, Ste 511","name":"Medical Affliated Research Center"},{"name":"Medical Affliated Research Center","address":"2525 W. Greenway Rd, Ste 250","postalCode":"85023","city":"Phoenix","latitude":"33.624359","country":"USA","longitude":"-112.112400","investigator":"Adram Burgher","state":"Arizona","trial_site_id":"1048"},{"trial_site_id":"1052","investigator":"Suzanne Fussell","state":"California","country":"USA","longitude":"-118.185179","city":"Los Angeles","latitude":"33.800783","postalCode":"90057","name":"Long Beach Clinical Trials Services Inc.","address":"2403 Atlantic Ave"},{"trial_site_id":"1054","investigator":"Mark Leibowitz","state":"California","country":"USA","longitude":"-118.274872","latitude":"34.057204","city":"Los Angeles","postalCode":"94598","name":"National Research Institute","address":"2010 Wilshire Blvd., Ste 302 and 809"},{"trial_site_id":"1055","investigator":"Helen Stacey","state":"California","latitude":"37.922378","city":"Walnut Creek","longitude":"-122.030085","country":"USA","address":"2255 Ygnacio Valley Rd, Ste M","name":"Diablo Clinical Research, Inc.","postalCode":"94598"},{"address":"3700 W 12th Ave, Ste 300","name":"Indago Research & Health Center, Inc.","postalCode":"33012","latitude":"25.855318","city":"Hialeah","longitude":"-80.307033","country":"USA","investigator":"Jose Cardona","state":"Florida","trial_site_id":"1056"},{"state":"Florida","investigator":"Fadi Chalhoub","trial_site_id":"1057","address":"5200 Belfort Rd, Ste 420","name":"Clinical Neurscience Solutions, Inc.","postalCode":"32256","latitude":"30.243625","city":"Jacksonville","longitude":"-81.586714","country":"USA"},{"longitude":"-116.375658","country":"USA","latitude":"43.641029","city":"Meridian","postalCode":"83646","address":"1525 E. Leigh Field Dr, #100","name":"Solaris Clinical Research","trial_site_id":"1066","state":"Mississippi","investigator":"David Butuk"},{"latitude":"45.668781","city":"Bozeman","longitude":"-111.018619","country":"USA","address":"915 Highland Blvd","name":"Bozeman Health Deaconess Hospital dba Bozeman Health Clinical Research","postalCode":"59715","trial_site_id":"1068","state":"Montana","investigator":"Andrew Gentry"},{"city":"Omaha","latitude":"41.262811","country":"USA","longitude":"-96.069489","name":"Quality Clinical Research, Inc.","address":"10040 Regency Cr, Ste 375","postalCode":"68114","trial_site_id":"1071","investigator":"Michael Dunn","state":"Nebraska"},{"latitude":"34.673102","city":"Huntsville","longitude":"-86.535652","country":"USA","address":"2089 Cecil Ashburn Dr, Ste 203","name":"Optimal Research, LLC","postalCode":"35802","trial_site_id":"1072","investigator":"Randle Middleton","state":"Alabama"},{"name":"Alliance for Multispecialty Research, LLC","address":"1492 S Mill Ave, Ste 312","postalCode":"85281","city":"Tempe","latitude":"33.412682","country":"USA","longitude":"-111.942122","state":"Arizona","investigator":"Corey Anderson","trial_site_id":"1073"},{"trial_site_id":"1077","investigator":"Suchet Patel","state":"New York","city":"Endwell","latitude":"42.114451","country":"USA","longitude":"-76.017445","name":"Meridian Clinical Research LLC","address":"409 Hooper Rd","postalCode":"13760"},{"trial_site_id":"1079","state":"North Carolina","investigator":"George Raad","longitude":"-80.847823","country":"USA","latitude":"35.169344","city":"Charlotte","postalCode":"28209","address":"1700 Abbey Place, Ste 201","name":"PMG Research of Charlotte, LLC"},{"trial_site_id":"1080","investigator":"Sylvia Shoffner","state":"North Carolina","latitude":"35.737095","city":"Cary","longitude":"-78.776400","country":"USA","address":"530 New Waverly Place, Ste 200A","name":"PMG Research of Raleigh, LLC, d/b/a PMG","postalCode":"27518"},{"state":"Ohio","investigator":"Michael Butcher","trial_site_id":"1081","postalCode":"45219","name":"Sterling Research Group, Ltd.","address":"2230 Auburn Ave, Level B","country":"USA","longitude":"-84.508043","latitude":"39.123140","city":"Cincinnati"},{"city":"Knoxville","latitude":"35.941513","country":"USA","longitude":"-83.945188","name":"Alliance for Multispecialty Research, LLC","address":"1924 Alcoa Hwy, 4 and 5 Nw","postalCode":"37920","trial_site_id":"1082","state":"Tennessee","investigator":"William Smith"},{"trial_site_id":"1083","state":"Texas","investigator":"Laurence Chu","latitude":"30.290425","city":"Austin","longitude":"-97.728125","country":"USA","address":"3100 Red River St, Ste 1","name":"Benchmark Research","postalCode":"78705"},{"name":"Clinical Trials of Texas, Inc.","address":"5430 Fredericksburgs Rd, Trlr","postalCode":"78229","latitude":"29.506873","city":"San Antonio","country":"USA","longitude":"-98.563588","state":"Texas","investigator":"Douglas Denham","trial_site_id":"1084"},{"postalCode":"76248","address":"300 N Rufe Snow Dr","name":"Ventavia Research Group, LLC","longitude":"-97.229835","country":"USA","latitude":"32.937803","city":"Keller","state":"Texas","investigator":"Gregory Fuller","trial_site_id":"1085"},{"investigator":"Kevin Cannon","state":"North Carolina","trial_site_id":"1087","postalCode":"28401","name":"PMG Research of Hickory, LLC","address":"1907 Tradd Court","country":"USA","longitude":"-77.927732","city":"Wilmington","latitude":"34.208389"},{"postalCode":"28601","address":"221 13th Ave P1 NW, Ste 201","name":"PMG Research of Hickory, LLC","longitude":"-81.341019","country":"USA","city":"Hickory","latitude":"35.750340","investigator":"John Earl","state":"North Carolina","trial_site_id":"1088"},{"trial_site_id":"1089","investigator":"Cecil Farrington","state":"North Carolina","longitude":"-80.471300","country":"USA","city":"Salisbury","latitude":"35.680044","postalCode":"28144","address":"410 Mocksville Ave","name":"PMG Research of Salisbury, LLC"},{"state":"North Carolina","investigator":"Lisa Cohen","trial_site_id":"1090","postalCode":"27612","address":"3100 Duraleigh Rd, Ste 304","name":"M3 Wake Research, Inc","longitude":"-78.705544","country":"USA","latitude":"35.823982","city":"Raleigh"},{"trial_site_id":"1091","investigator":"Samir Arora","state":"Ohio","longitude":"-82.826839","country":"USA","city":"Columbus","latitude":"39.984484","postalCode":"43213","address":"99 N. Brice Rd, Ste 210","name":"Aventiv Research Inc (Facility and Drug Shipment Address)"},{"investigator":"Rajesh Davit","state":"Ohio","trial_site_id":"1092","name":"Sterling Research Group, Ltd.","address":"375 Glenspring Dr, 2nd F1","postalCode":"45246","city":"Cincinnati","latitude":"39.292321","country":"USA","longitude":"-84.487138"},{"trial_site_id":"1093","state":"Iowa","investigator":"David Ensz","country":"USA","longitude":"-96.345013","city":"Sioux City","latitude":"42.455354","postalCode":"51106","name":"Meridian Clinical Research, LLC","address":"4802 Sunnybrook Dr"},{"address":"11021 Shadow Creek Pkwy, Ste 102","name":"LinQ Research, LLC","postalCode":"77584","city":"Pearland","latitude":"29.582949","longitude":"-95.387597","country":"USA","investigator":"Murtaza Mussaji","state":"Texas","trial_site_id":"1094"},{"country":"USA","longitude":"-97.802824","city":"Houston","latitude":"30.230984","postalCode":"78745","name":"Tekton Research, Inc.","address":"4534 W Gate Blvd., Ste 110","trial_site_id":"1095","investigator":"Paul Pickrell","state":"Texas"},{"trial_site_id":"1096","state":"Texas","investigator":"Van Tran","latitude":"29.810730","city":"Houston","longitude":"-95.434200","country":"USA","address":"1919 N Loop W, Ste 250","name":"Dr Van Tran Family Practice, Hany H. Ahmed MD & Ventavia Research Group, LLC","postalCode":"77008"},{"latitude":"33.868737","city":"Little River","longitude":"-78.671005","country":"USA","address":"3600 Sea Moutain","name":"Main Street Physician's Care","postalCode":"29566","trial_site_id":"1097","investigator":"Tom Christensen","state":"South Carolina"},{"investigator":"Salma Saiger","state":"Texas","trial_site_id":"1098","name":"SMS Clinical Research, LLC","address":"1210 N Galloway Ave","postalCode":"75149","latitude":"32.779964","city":"Mesquite","country":"USA","longitude":"-96.600121"},{"postalCode":"68025","name":"Methodist Physicians Clinic / CCT Research","address":"350 W 23rd St","country":"USA","longitude":"-96.500113","latitude":"41.451665","city":"Fremont","state":"Nebraska","investigator":"Thomas Wolf","trial_site_id":"1101"},{"city":"Mobile","latitude":"30.683890","country":"USA","longitude":"-88.130755","name":"Alliance for Multispecialty Research, LLC","address":"100 Memorial Hospital Dr, Annex Bldg, Ste-3B","postalCode":"36608","trial_site_id":"1107","investigator":"Harry Studdard","state":"Alabama"},{"longitude":"-81.314699","country":"USA","latitude":"29.044612","city":"DeLand","postalCode":"32720","address":"860 Peachwood Dr","name":"DeLand Clinical Research Unit","trial_site_id":"1109","state":"Florida","investigator":"Bruce Rankin"},{"trial_site_id":"1110","investigator":"Jeffrey Rosen","state":"Florida","country":"USA","longitude":"-80.262393","latitude":"25.753515","city":"Coral Gables","postalCode":"33134","name":"Alliance for Multispecialty Research, LLC-Miami","address":"370 Minorca Ave, Miami-Dade County, Coral Gables Section"},{"postalCode":"32003","address":"1679 Eagle Harbor Pkwy, Ste D","name":"Fleming Island Center for Clinical Research","longitude":"-81.704563","country":"USA","city":"Fleming Island","latitude":"30.100353","state":"Florida","investigator":"Michael Stephens","trial_site_id":"1111"},{"investigator":"Nathan Segall","state":"Georgia","trial_site_id":"1112","postalCode":"30281","address":"175 Country Club Dr, Bldg 100, Ste A","name":"Clinical Research Atlanta","longitude":"-84.226060","country":"USA","city":"Stockbridge","latitude":"33.505802"},{"state":"Kansas","investigator":"Richard Glover","trial_site_id":"1114","postalCode":"67114","name":"Alliance for Multispeciality Research, LLC","address":"700 Medical Center Dr, Ste 110","country":"USA","longitude":"-97.332772","city":"Newton","latitude":"38.022490"},{"name":"MedPharmics, LLC","address":"15190 Community Rd., Ste 350","postalCode":"39503","latitude":"30.443989","city":"Gulfport","country":"USA","longitude":"-89.093605","state":"Mississippi","investigator":"Paul Matherne","trial_site_id":"1116"},{"name":"Sundance Clinical Research, LLC","address":"711 Old Ballas Rd, Ste 105","postalCode":"63141","city":"St Louis","latitude":"38.668863","country":"USA","longitude":"-90.438865","investigator":"Larkin Wadsworth","state":"Missouri","trial_site_id":"1117"},{"trial_site_id":"1118","state":"New York","investigator":"Frank Eder","latitude":"42.160032","city":"Binghamton","longitude":"-75.893706","country":"USA","address":"1290 Uppr Frnt St","name":"Meridian Clinical Research, LLC","postalCode":"13901"},{"state":"Georgia","investigator":"Paul Bradley","trial_site_id":"1120","name":"Meridian Clinical Research, LLC","address":"340 Eisenhower Dr, Ste 1200","postalCode":"31406","latitude":"32.008920","city":"Savannah","country":"USA","longitude":"-81.106783"},{"latitude":"40.747241","city":"Peoria","longitude":"-89.608416","country":"USA","address":"4911 N. Executive Dr, 2nd Fl","name":"Optimal Research, LLC","postalCode":"61614","trial_site_id":"1121","investigator":"Daniel Brune","state":"Illinois"},{"trial_site_id":"1122","investigator":"Curtis Donskey","state":"Ohio","longitude":"-81.613110","country":"USA","city":"Cleveland","latitude":"41.514240","postalCode":"44106","address":"10701 E Blvd.","name":"VA Northeast Ohio Healthcare System"},{"name":"Meridian Clinical Research, LLC","address":"3319 N 107th St.","postalCode":"68134","latitude":"41.289274","city":"Omaha","country":"USA","longitude":"-96.079164","investigator":"Brandon Essink","state":"Nebraska","trial_site_id":"1123"},{"trial_site_id":"1124","investigator":"David Fried","state":"Rhode Island","city":"Warwick","latitude":"41.724736","country":"USA","longitude":"-71.478541","name":"Omega Medical Research","address":"400 Bald Hill Rd","postalCode":"02886"},{"postalCode":"68701","address":"1410 N 13th St., Ste 5","name":"Meridian Clinical Research, LLC","longitude":"-97.426160","country":"USA","city":"Norfolk","latitude":"42.048817","investigator":"Charles Harper","state":"Nebraska","trial_site_id":"1125"},{"country":"USA","longitude":"-121.429578","latitude":"38.595565","city":"Sacramento","postalCode":" 95815","name":"Kaiser Permanente Sacramento","address":"1650 Response Rd","trial_site_id":"1126","state":"California","investigator":"Nicola Klein"},{"trial_site_id":"1127","investigator":"Tracy Klein","state":"Kansas","city":"Wichita","latitude":"38.595276","country":"USA","longitude":"-121.429798","name":"Alliance for Multispecialty Research, LLC","address":"1709 S Rock Rd","postalCode":"67207"},{"name":"Ventavia Research Group, LLC","address":"1307 8th Ave, Ste 202 & Ste M1","postalCode":"76104","city":"Fort Worth","latitude":"32.730420","country":"USA","longitude":"-97.342842","state":"Texas","investigator":"Mark Koch","trial_site_id":"1128"},{"trial_site_id":"1129","state":"Florida","investigator":"Michael Koren","longitude":"-81.601679","country":"USA","latitude":"30.283314","city":"Jacksonville","postalCode":"32216","address":"4085 University Blvd, Ste 1","name":"Jacksonville Center for Clinical Research"},{"address":"3800 N Interstate Ave","name":"Kaiser Permanente Northwest-Center for Health","postalCode":"97227","latitude":"45.550319","city":"Portland","longitude":"-122.680840","country":"USA","state":"Oregon","investigator":"Stephen Fortmann","trial_site_id":"1130"},{"trial_site_id":"1131","state":"Ohio","investigator":"William Randall","city":"Dayton","latitude":"39.724205","country":"USA","longitude":"-84.153467","name":"PriMED Clinical Research","address":"948 Patterson Rd","postalCode":"45419"},{"investigator":"Howard Schwartz","state":"Florida","trial_site_id":"1133","postalCode":"33024","address":"7261 Sheridan St, Suites 210, 215, 310","name":"Research Centers of America","longitude":"-80.234138","country":"USA","city":"Hollywood","latitude":"26.032258"},{"country":"USA","longitude":"-80.295588","city":"Winston-Salem","latitude":"36.077265","postalCode":"27103","name":"PMG Research of Winston-Salem, LLC","address":"1901 S. Hawthorne Rd, Ste 306","trial_site_id":"1134","investigator":"Jonathan Wilson","state":"North Carolina"},{"investigator":"Peter Winkle","state":"California","trial_site_id":"1135","name":"Anaheim Clinical Trials, LLC","address":"1085 N. Harbor Blvd.","postalCode":"92801","latitude":"33.850280","city":"Anaheim","country":"USA","longitude":"-117.924733"},{"state":"Nevada","investigator":"Michael Levin","trial_site_id":"1136","name":"Wake Research-Clinical Center of Nevada, LLC","address":"1022E Sahara Ave","postalCode":"89104","latitude":"36.145827","city":"Las Vegas","country":"USA","longitude":"-115.140502"},{"latitude":"36.008967","city":"Durham","longitude":"-78.944857","country":"USA","address":"2608 Erwin Rd, Ste 210","name":"Duke Vaccine and Trials Unit","postalCode":"27705","trial_site_id":"1139","investigator":"Emmanuel Walter","state":"North Carolina"},{"investigator":"Stephen Thomas","state":"New York","trial_site_id":"1140","postalCode":"13210","address":"505 Irving Ave, Clinical Research Unit","name":"SUNY Upstate Medical University","longitude":"-76.136962","country":"USA","latitude":"43.044949","city":"Syracuse"},{"postalCode":"52242","name":"University of Iowa Hospitals & Clinics","address":"200 Hawkins Dr","country":"USA","longitude":"-91.548543","latitude":"41.660436","city":"Iowa City","state":"Iowa","investigator":"Patricia Winokur","trial_site_id":"1141"},{"state":"Texas","investigator":"Richard Rupp","trial_site_id":"1142","postalCode":"77555","name":"University of Texas Medical Branch","address":"Pavilion, 400 Harborside Dr, Ste 126","country":"USA","longitude":"-94.774518","latitude":"29.314075","city":"Galveston"},{"trial_site_id":"1145","investigator":"Kawsar Talaat","state":"Maryland","country":"USA","longitude":"-76.545799","latitude":"39.291280","city":"Baltimore","postalCode":"21224","name":"Center for Immunization Research Inpatient Unit Johns Hopkins Bayview Medical Center","address":"301 Mason Lord Dr, 4300"},{"name":"Amici Clinical Research","address":"34 E Somerset St","postalCode":"08869","latitude":"40.568084","city":"Rajitan","country":"USA","longitude":"-74.630641","investigator":"Robert Falcone","state":"New Jersey","trial_site_id":"1146"},{"latitude":"29.962430","city":"New Orleans","longitude":"-90.145600","country":"USA","address":"1514 Jefferson Hwy","name":"Ochsner Clinic Foundation","postalCode":"70121","trial_site_id":"1147","investigator":"Julia Garcia-Diaz","state":"Louisiana"},{"investigator":"Steven Reynolds","state":"California","trial_site_id":"1149","address":"12772 Valley View St, Ste 3","name":"Collaborative Neuroscience Research, LLC","postalCode":"92845","city":"Garden Grove","latitude":"33.777543","longitude":"-118.034075","country":"USA"},{"postalCode":"44121","address":"2054 S Green Rd","name":"Senders Pediatrics","longitude":"-81.519490","country":"USA","latitude":"41.504194","city":"South Euclid","state":"Ohio","investigator":"Shelly Senders","trial_site_id":"1150"},{"postalCode":"92123-1881","address":"4180 Ruffin Rd, Ste 255","name":"California Research Foundation","longitude":"-117.124983","country":"USA","latitude":"32.817426","city":"San Diego","state":"California","investigator":"Donald Branson","trial_site_id":"1152"},{"latitude":"25.823990","city":"Miami","country":"USA","longitude":"-80.237163","name":"Acevedo Clinical Research Associates","address":"2400 Nw 54th St","postalCode":"33142","trial_site_id":"1156","investigator":"Hector Rodriguez","state":"Florida"},{"trial_site_id":"1157","state":"California","investigator":"Jamshid Saleh","city":"Redding","latitude":"40.584164","longitude":"-122.425566","country":"USA","address":"3652 Eureka Way","name":"Paradigm Clinical Research Center","postalCode":"96001"},{"postalCode":"76904","address":"3605 Executive Dr","name":"Benchmark Research","longitude":"-100.470492","country":"USA","city":"San Angelo","latitude":"31.416111","investigator":"Darrel Herrington","state":"Texas","trial_site_id":"1161"},{"latitude":"33.740088","city":"Atlanta","country":"USA","longitude":"-84.512626","name":"Atlanta Center for Medical Research","address":"501 Fairburn Rd SW","postalCode":"30331","trial_site_id":"1162","investigator":"Robert Riesenberg","state":"Georgia"},{"country":"USA","longitude":"-90.184251","city":"Metairie","latitude":"30.006103","postalCode":"70006","name":"Benchmark Research","address":"4517 Veterans Memorial Blvd","trial_site_id":"1163","state":"Louisiana","investigator":"George Bauer"},{"trial_site_id":"1166","state":"Ohio","investigator":"Mary Beth Manning","latitude":"41.461777","city":"Cleveland","longitude":"-81.493970","country":"USA","address":"3619 Park E Dr, Ste 300","name":"Rapid Medical Research, Inc.","postalCode":"44122"},{"state":"Tennessee","investigator":"Emily Morawski","trial_site_id":"1167","name":"Holston Medical Group","address":"105 W Stone Dr, 3rd Fl, Ste 3B","postalCode":"37660","city":"Kingsport","latitude":"36.557416","country":"USA","longitude":"-82.552999"},{"investigator":"Steven Cox","state":"Oklahoma","trial_site_id":"1168","address":"630 24th Ave Sw.","name":"Lynn Institute of Norman","postalCode":"73069","latitude":"35.209973","city":"Norman","longitude":"-97.476766","country":"USA"},{"name":"Lehigh Valley Health Network / Network Office of Research and Innovation","address":"17th & Chew Streets","postalCode":"18102","latitude":"40.600758","city":"Allentown","country":"USA","longitude":"-75.494202","state":"Pennsylvania","investigator":"Joseph Yozviak","trial_site_id":"1169"},{"trial_site_id":"1170","investigator":"Mezgebe Berhe","state":"Texas","longitude":"-96.779399","country":"USA","city":"Dallas","latitude":"32.788375","postalCode":"75246","address":"3409 Worth St, Ste 710, 725, 740","name":"North Texas Infectious Deseases Consultants, P.A."},{"latitude":"30.084754","city":"Tomball","country":"USA","longitude":"-95.623484","name":"DM Clinical Research","address":"13406 Medical Complex Dr, Ste 53","postalCode":"77375","trial_site_id":"1171","investigator":"Earl Martin","state":"Texas"},{"investigator":"Donald Poretz","state":"Virginia","trial_site_id":"1174","postalCode":"22003","name":"Infectious Diseases Physicians, LLC","address":"3289 Woodburn Rd, Ste 200","country":"USA","longitude":"-77.223548","city":"Annandale","latitude":"38.854249"},{"longitude":"-157.840296","country":"USA","latitude":"21.291175","city":"Honolulu","postalCode":"96814","address":"1585 Kapiolani Blvd, Ste 1500","name":"East-West Medical Reseach Institute","trial_site_id":"1177","state":"Virginia","investigator":"David Fitz-Patrick"},{"trial_site_id":"1178","state":"Texas","investigator":"Stephan Sharp","country":"USA","longitude":"-96.803811","latitude":"32.750371","city":"Dallas","postalCode":"75246","name":"Clinical Research Associates, Inc.","address":"1500 Church St, Ste 100"},{"postalCode":"48334","address":"30160 Orchard Lake Rd","name":"Michigan Center for Medical Research","longitude":"-83.359298","country":"USA","city":"Farmington Hills","latitude":"42.519643","state":"Michigan","investigator":"Steven Katzman","trial_site_id":"1179"},{"state":null,"investigator":"Marylyn Addo","trial_site_id":"1185","address":"Bernhard-Nocht-Str 74","name":"Universitatsklinikum Hamburg-Eppendorf","postalCode":"20359","city":"Hamburg","latitude":"53.547077","longitude":"9.964825","country":"Germany"},{"postalCode":"60596","name":"IKF Pneumologie GmbH & Co KG","address":"Institut fÃ¼r klinische Forschung","country":"Germany","longitude":"8.668858","city":"Frankfurt am Main","latitude":"50.100141","investigator":"Steven Katzman","state":null,"trial_site_id":"1194"},{"postalCode":"45355","name":"Medizentrum Essen Borbeck","address":"Huelsmannstrasse 6","country":"Germany","longitude":"6.951541","city":"Essen","latitude":"51.475626","investigator":"Axel Schaefer","state":null,"trial_site_id":"1195"},{"state":null,"investigator":"Matthias Luttermann","trial_site_id":"1197","name":"Studienzentrum Brinkum Dr. Lars Pohlmeier und Torsten Drescher","address":"Melcherstaette 7","postalCode":"28816","city":"Stuhr","latitude":"53.008653","country":"Germany","longitude":"8.783205"},{"investigator":"Armin Schultz","state":null,"trial_site_id":"1202","address":"Grenadierstr. 1","name":"CRS Clinical Research Services Mannheim GmbH","postalCode":"68167","latitude":"49.500255","city":"Mannheim","longitude":"8.488605","country":"Germany"},{"state":null,"investigator":"Sybille Baumann","trial_site_id":"1203","postalCode":"13353","name":"CRS Clinical Research Services Berlin GmbH","address":"Sellerstr. 31","country":"Germany","longitude":"13.370117","latitude":"52.539590","city":"Berlin"},{"country":"USA","longitude":"-73.952085","latitude":"40.791404","city":"New York","postalCode":"10029","name":"Icahn School of Medicine at Mount Sinai","address":"17 E 102nd st, 8th fl","trial_site_id":"1204","investigator":"Judith Aberg","state":"New York"},{"latitude":"39.931674","city":"Ankara","longitude":"32.863173","country":"Turkey","address":"Anabilim Dali, Sihhiye","name":"Hacettepe Universitesi Tip Fakultesi","postalCode":"06230","trial_site_id":"1205","investigator":"Serhat Unal","state":null},{"trial_site_id":"1207","investigator":"Ismail Balik","state":null,"country":"Turkey","longitude":"32.882137","city":"Ankara","latitude":"39.933943","postalCode":"06230","name":"Ankara Universitesi Tip Fakultesi, Ibni Sina Hastanesi","address":"Anabilim Dali"},{"trial_site_id":"1208","state":null,"investigator":"Iflihar Koksal","city":"Istanbul","latitude":"41.034447","longitude":"28.778700","country":"Turkey","address":"Birimi, Kucukcekmece","name":"Acibadem Atakent Hastanesi, Enfeksiyon Hastaliklari ye Klinik Mikrobiyoloji","postalCode":"34303"},{"city":"Istanbul","latitude":"41.001984","longitude":"28.915308","country":"Turkey","address":"Zeytinburnu","name":"Istanbul Yedikule Gogus Hastaliklari ve Gogus","postalCode":"34020","trial_site_id":"1209","investigator":"Sedat Altin","state":null},{"postalCode":"34214","address":"Bagcilar","name":"Medipol Mega Uniyersite Hastanesi","longitude":"28.842730","country":"Turkey","city":"Istanbul","latitude":"41.058056","state":null,"investigator":"Ali Mert","trial_site_id":"1210"},{"state":null,"investigator":"Oguz Karabay","trial_site_id":"1212","postalCode":"54100","address":"Hastanesi, Adapazari","name":"Sakarya Universitesi Egitim ye Arastirma","longitude":"30.390759","country":"Turkey","city":"Sakarya","latitude":"40.756266"},{"postalCode":"34098","name":"Istanbul Universitesi-Cerrahpasa, Cerrahpasa Tip Fakultesi","address":"Enfeksiyon Hastaliklari ve Klinik Mikrobiyoloji, Anabilim Dali, Fatih","country":"Turkey","longitude":"28.939809","latitude":"41.004328","city":"Istanbul","investigator":"Omer Tabak","state":null,"trial_site_id":"1213"},{"address":"Enfeksiyon Hastaliklari ve Klutik Mikrobiyoloji Anabilim Dali Fatih","name":"Istanbul Universitesi Istanbul Tip Fakultesi","postalCode":"34093","latitude":"41.004526","city":"Istanbul","longitude":"28.940009","country":"Turkey","investigator":"Serap Simsek-Yavuz","state":null,"trial_site_id":"1214"},{"name":"Kocaeli Universitesi Tip Fakultesi","address":"Enfeksiyon Hastaliklari ve Klinik Mikrobiyoloji Anabilim Dali Umuttepe","postalCode":"41380","latitude":"40.824714","city":"Kocaeli","country":"Turkey","longitude":"29.919205","investigator":"Sila Akhan","state":null,"trial_site_id":"1217"},{"longitude":"-109.961128","country":"USA","latitude":"33.878486","city":"Whiteriver","postalCode":"41380","address":"308 Kuper St.","name":"Johns Hopkins Center for American Indian Health","trial_site_id":"1218","investigator":"Laura Hammitt","state":"Maryland"},{"trial_site_id":"1219","investigator":"Laura Hammitt","state":"Maryland","latitude":"36.152499","city":"Chinle","longitude":"-109.556408","country":"USA","address":"US Hwy 191 and Hospital Rd","name":"Johns Hopkins Center for American Indian Health","postalCode":"86503"},{"trial_site_id":"1220","investigator":"Laura Hammitt","state":"New Mexico","country":"USA","longitude":"-108.691378","latitude":"36.804719","city":"Shiprock","postalCode":"87420","name":"Northern Navajo Medical Center","address":"US Hwy 491 N"},{"postalCode":"87301","address":"516 E Nizhoni Blvd","name":"Gallup Indian Medical Center","longitude":"-108.729960","country":"USA","latitude":"35.508026","city":"Gallup","investigator":"Laura Hammitt","state":"New Mexico","trial_site_id":"1221"},{"latitude":"41.301948","city":"New Haven","country":"USA","longitude":"-72.930261","name":"Yale Center for Clinical Investigations","address":"2 Church St S, Ste 114","postalCode":"06510","trial_site_id":"1223","investigator":"Onyema Ogbuagu","state":"Massachusetts"},{"investigator":"Larry Odekirk","state":"Colorado","trial_site_id":"1224","address":"1411 S. Potomac St, Ste 420","name":"Lynn Institute of Denver","postalCode":"80012","latitude":"39.691116","city":"Aurora","longitude":"-104.833078","country":"USA"},{"state":null,"investigator":"Cristiano Zerbini","trial_site_id":"1226","postalCode":"04266-010","address":"Rua Moreira e Costa, 342 - Ipiranga","name":"CEPIC - Centro Paulista de Investigacao Clinica e Servicos Medicos Ltda (Casa Blanca)","longitude":"-46.611078","country":"Brazil","city":"Sao Paulo","latitude":"-23.589737"},{"trial_site_id":"1229","investigator":"Essack Mitha","state":null,"latitude":"-26.203004","city":"Johannesburg","longitude":"28.036724","country":"South Africa","address":"104 Jeppe Street, Newtown, Suite 3, Newgate Centre","name":"Newtown Clinical Research Centre","postalCode":"2113"},{"state":null,"investigator":"Leon Fouche","trial_site_id":"1230","address":"11 Van der Hip Street","name":"Limpopo Clinical Research Initiative, Tamboti Medical Centre","postalCode":"0380","city":"Thabazimbi","latitude":"-24.591370","longitude":"27.406048","country":"South Africa"},{"investigator":"Fernando Polack","state":null,"trial_site_id":"1231","address":"Louis Maria Campos 726 Piso 8","name":"Hospital Militar Central Cirujano Mayor Dr","postalCode":"1426","latitude":"-34.569624","city":"Caba","longitude":"-58.437341","country":"Argentina"},{"longitude":"-84.982224","country":"USA","latitude":"32.483183","city":"Columbus","postalCode":"31904","address":"800 Talbotton Rd","name":"IACT Health","trial_site_id":"1232","investigator":"Jeffrey Kingsley","state":"Georgia"},{"city":"Shreveport","latitude":"32.494217","country":"USA","longitude":"-93.751993","name":"LSUHSC-Shreveport","address":"1801 Fairfield Ave, Ste 203","postalCode":"71101","trial_site_id":"1235","state":"Louisiana","investigator":"John Vanchiere"},{"investigator":"Edson Moreira","state":null,"trial_site_id":"1241","postalCode":"BAHIA CEP 40415-006","name":"Hospital Santo Antonio Associacao Obras Sociais","address":"Avenida Dendeziros do Bonfim, nÂ°161","country":"Brazil","longitude":"-38.506831","latitude":"-12.934974","city":"Salvador"},{"name":"Jongaie Research","address":"Medicross Pretoria West, 1st Floor, 551 WF Nkomo Street","postalCode":"0183","city":"Pretoria","latitude":"-25.748881","country":"South Africa","longitude":"28.149101","investigator":"Dany Musungaie","state":null,"trial_site_id":"1246"},{"postalCode":"7530","name":"Tiervlei Trial Centre, Basement Level, Karl Bremer Hospital","address":"c/o Mike Bienaar Boulevard & Frans Coradie Avenue, Bellville","country":"South Africa","longitude":"18.637222","latitude":"-33.871827","city":"Cape Town","investigator":"Haylene Nell","state":null,"trial_site_id":"1247"},{"state":"Maryland","investigator":"Mohamed Al-Ibrahim","trial_site_id":"1248","postalCode":"21201","name":"Pharmaron CPC, Inc.","address":"800 W Baltimore St, 5th and 6th Fl","country":"USA","longitude":"-76.628981","latitude":"39.289088","city":"Baltimore"},{"latitude":"33.444924","city":"Birmingham","longitude":"-86.789571","country":"USA","address":"2017 Cayon Rd, Ste 41","name":"Birmingham Clinical Research Unit","postalCode":"35216","trial_site_id":"1251","state":"Alabama","investigator":"Hayes Williams"},{"name":"Main Street Physician's Care","address":"3612 Mitchell St","postalCode":"29569","city":"Loris","latitude":"34.056590","country":"USA","longitude":"-78.898022","investigator":"Stephen Grubb","state":"South Carolina","trial_site_id":"1252"},{"state":"California","investigator":"Robert Heller","trial_site_id":"1254","address":"12626 Riverside Dr, Ste 404","name":"Bayview Research Group","postalCode":"91607","latitude":"34.156794","city":"Valley Village","longitude":"-118.408083","country":"USA"},{"latitude":"39.774991","city":"Dayton","country":"USA","longitude":"-84.216896","name":"Dayton Clinical Research","address":"1100 Salem Ave","postalCode":"45406","trial_site_id":"1258","state":"Ohio","investigator":"Martin Schear"},{"postalCode":"01655","name":"UMass Memorial Medical Center - University","address":"55 Lake Ave N","country":"USA","longitude":"-71.762984","latitude":"42.275392","city":"Worcester","state":"Massachusetts","investigator":"Robert Finberg","trial_site_id":"1260"},{"city":"Worcester","latitude":"42.275392","longitude":"-71.762984","country":"USA","address":"55 Lake Ave N","name":"Benaroya Research Institute at Virginia Mason","postalCode":"01655","trial_site_id":"1261","state":"Massachusetts","investigator":"Carla Greenbaum"},{"address":"2315 Stockton Blvd","name":"UC Davis Medical Center","postalCode":"95817","latitude":"38.554260","city":"Sacramento","longitude":"-121.455454","country":"USA","investigator":"Timothy Albertson","state":"California","trial_site_id":"1264"},{"investigator":"William Towner","state":"California","trial_site_id":"1265","address":"Edgemont Medical Offices 1526 N Edgemont St","name":"Kaiser Petmanente Los Angeles Medical Center","postalCode":"90027","latitude":"34.098208","city":"Los Angeles","longitude":"-118.295618","country":"USA"},{"city":"North Hollywood","latitude":"34.187014","country":"USA","longitude":"-118.396461","name":"Providence Clinical Research","address":"6400 Laurel Canyon Blvd, Ste 300A","postalCode":"91606","trial_site_id":"1269","state":"California","investigator":"Teresa Sligh"},{"longitude":"-121.996307","country":"USA","city":"Santa Clara","latitude":"37.336446","postalCode":"95051","address":"710 Lawrence Expy","name":"Kaiser Petmanente Santa Clara","trial_site_id":"1270","investigator":"Nicola Klein","state":"California"}]